,City Name,City ID,Country,Latitude,Longitude,Temp (F),Humidity (%),Cloudiness (%),Wind Speed (mph)
0,Bonthe,2409914,SL,7.53,-12.51,79.3,80,100,14.29
1,Concarneau,3024035,FR,47.88,-3.92,67.95,88,75,10.29
2,Inongo,2315417,CD,-1.95,18.27,80.01,54,49,3.42
3,Ballina,2177069,AU,-28.87,153.57,60.49,88,90,12.75
4,Puerto Ayora,3652764,EC,-0.74,-90.35,68.0,94,100,7.0
5,Hasaki,2112802,JP,35.73,140.83,73.81,100,75,2.24
6,Bria,239899,CF,6.54,21.99,81.61,73,100,3.65
7,Pāvilosta,456827,LV,56.89,21.19,60.8,87,100,11.41
8,Topeka,4280539,US,39.05,-95.68,82.58,74,1,5.82
9,Punta Arenas,3874787,CL,-53.15,-70.92,39.09,86,24,16.11
10,Lavrentiya,4031637,RU,65.58,-171.0,45.75,80,66,6.22
11,Katsuura,2112309,JP,35.13,140.3,76.08,91,100,11.27
12,Bathsheba,3374083,BB,13.22,-59.52,80.6,83,75,18.34
13,Maniitsoq,3421982,GL,65.42,-52.9,48.92,84,81,5.19
14,Rikitea,4030556,PF,-23.12,-134.97,67.77,57,0,12.66
15,Husavik,2629833,IS,66.04,-17.34,46.4,75,75,18.34
16,Hermanus,3366880,ZA,-34.42,19.23,81.0,30,0,3.0
17,Yenagoa,2318123,NG,4.92,6.26,82.04,76,100,9.44
18,Tasiilaq,3424607,GL,65.61,-37.64,41.0,80,75,4.7
19,Ushuaia,3833367,AR,-54.8,-68.3,37.4,74,75,25.28
20,Kupang,2057087,ID,-10.17,123.58,74.25,68,67,13.53
21,Pacific Grove,5380437,US,36.62,-121.92,57.0,82,90,4.7
22,Yellowknife,6185377,CA,62.46,-114.35,51.84,93,90,6.02
23,Abéché,245785,TD,13.83,20.83,92.88,39,20,8.05
24,Huercal Overa,2516542,ES,37.39,-1.95,90.0,33,0,1.01
25,Viranşehir,298033,TR,37.24,39.76,108.43,8,0,8.46
26,Saskylakh,2017155,RU,71.92,114.08,48.79,87,98,10.25
27,Ambulu,1621313,ID,-8.35,113.61,71.82,83,79,6.53
28,Quatre Cocos,1106643,MU,-20.21,57.76,68.0,64,75,16.11
29,Cham,2940202,DE,49.24,12.68,76.51,37,9,4.0
30,Bandarbeyla,64814,SO,9.49,50.81,82.8,57,72,30.22
31,Upernavik,3418910,GL,72.79,-56.15,45.61,79,87,5.46
32,Jamestown,5122534,US,42.1,-79.24,74.12,78,40,3.36
33,Atuona,4020109,PF,-9.8,-139.03,78.62,82,32,20.62
34,Norman Wells,6089245,CA,65.28,-126.83,51.8,93,20,3.36
35,Abonnema,2324433,NG,4.71,6.79,86.0,70,75,6.93
36,New Norfolk,2155415,AU,-42.78,147.06,45.09,85,100,2.64
37,Qaanaaq,3831208,GL,77.48,-69.36,47.28,54,0,1.81
38,Ola,2122574,RU,59.58,151.28,52.95,87,93,5.48
39,Bredasdorp,1015776,ZA,-34.53,20.04,84.2,17,0,8.05
40,Bethel,5282297,US,41.37,-73.41,72.48,83,75,5.82
41,Busselton,2075265,AU,-33.65,115.33,46.62,74,0,8.1
42,Paralímni,146209,CY,35.04,33.98,95.63,49,0,18.34
43,Juneau,5554072,US,58.3,-134.42,55.67,82,75,9.17
44,Kamenka,553766,RU,51.32,42.77,75.0,34,24,5.01
45,Nizwá,286987,OM,22.93,57.53,96.06,31,13,10.42
46,College,5859699,US,64.86,-147.8,50.34,81,75,4.7
47,Port Alfred,964432,ZA,-33.59,26.89,75.27,35,0,7.49
48,College Station,4682464,US,30.63,-96.33,83.64,70,1,9.17
49,Kavieng,2094342,PG,-2.57,150.8,83.26,78,63,13.71
50,Dingzhou,1812728,CN,38.51,115.0,78.8,65,100,4.47
51,Souillac,933995,MU,-20.52,57.52,68.0,64,75,16.11
52,Barrow,5880054,US,71.29,-156.79,35.6,93,90,24.16
53,Margate,2643044,GB,51.38,1.39,72.14,51,46,4.0
54,Mashhad,124665,IR,36.3,59.61,93.2,21,40,9.17
55,Shingū,1847947,JP,33.73,135.98,74.91,94,100,2.82
56,Lebu,3883457,CL,-37.62,-73.65,46.56,76,100,5.95
57,Acapulco de Juárez,3533462,MX,16.86,-99.89,78.8,88,75,4.7
58,Port-Gentil,2396518,GA,-0.72,8.78,76.28,75,50,13.24
59,Paamiut,3421193,GL,61.99,-49.67,46.02,92,84,4.38
60,Avera,4231997,US,33.19,-82.53,80.06,83,1,2.26
61,Butaritari,2110227,KI,3.07,172.79,82.54,79,1,14.99
62,Naze,1855540,JP,28.37,129.48,84.2,89,75,10.29
63,Port Elizabeth,964420,ZA,-33.92,25.57,77.0,41,0,2.24
64,Coquimbo,3893629,CL,-29.95,-71.34,53.6,58,0,3.36
65,Hobart,2163355,AU,-42.88,147.33,46.38,75,90,9.17
66,Cap Malheureux,934649,MU,-19.98,57.61,68.0,61,41,8.01
67,Zeya,2012593,RU,53.75,127.27,61.57,87,100,5.59
68,Baños,3660346,EC,-1.4,-78.42,59.58,82,75,3.06
69,Vestmanna,2610343,FO,62.16,-7.17,51.8,100,100,5.82
70,Broome,5110365,US,42.25,-75.83,71.64,83,90,4.43
71,Meulaboh,1214488,ID,4.14,96.13,79.61,79,100,0.69
72,Denpasar,1645528,ID,-8.65,115.22,77.0,78,40,10.29
73,Batagay-Alyta,2027042,RU,67.8,130.41,64.0,51,100,2.64
74,Sakakah,102527,SA,29.97,40.21,109.4,10,0,11.41
75,Cape Town,3369157,ZA,-33.93,18.42,76.1,27,0,13.87
76,Mataura,6201424,NZ,-46.19,168.86,39.0,83,56,3.0
77,Lüderitz,3355672,NA,-26.65,15.16,84.2,16,0,8.05
78,Honningsvåg,779554,NO,70.98,25.97,53.6,87,63,5.82
79,Pitimbu,3391889,BR,-7.47,-34.81,82.4,65,75,12.75
80,Albany,5106841,US,42.6,-73.97,75.65,67,100,6.15
81,Beloha,1067565,MG,-25.17,45.05,66.2,61,47,17.22
82,Cidreira,3466165,BR,-30.18,-50.21,69.71,64,100,7.02
83,Goderich,5962442,CA,43.75,-81.72,72.64,77,0,1.01
84,Karlskrona,2701713,SE,56.16,15.59,64.4,88,75,13.87
85,Nova Serrana,3456117,BR,-19.88,-44.98,74.77,44,0,8.95
86,Arraial do Cabo,3471451,BR,-22.97,-42.03,77.0,61,0,19.46
87,Nishifukuma,1863978,JP,33.77,130.47,76.66,69,75,11.41
88,Termoli,6541934,IT,41.99,14.99,88.0,50,2,7.0
89,Storforshei,3145614,NO,66.4,14.52,56.19,71,75,3.36
90,Pemba,1028918,MZ,-12.97,40.52,78.4,69,20,24.16
91,Gualeguay,3433663,AR,-33.14,-59.31,46.38,75,13,7.18
92,Leningradskiy,2123814,RU,69.38,178.42,37.9,89,61,1.77
93,Wajima,1848976,JP,37.4,136.9,72.41,92,100,15.21
94,Port Macquarie,2152659,AU,-31.43,152.92,48.02,100,90,4.41
95,San Isidro,3929631,PE,-12.12,-77.05,60.8,87,90,3.36
96,Doha,290030,QA,25.29,51.53,100.06,53,50,9.17
97,Maltahöhe,3355624,NA,-24.83,16.98,71.01,20,0,14.12
98,Bluff,2206939,NZ,-46.6,168.33,39.0,83,83,3.0
99,Severo-Yeniseyskiy,1492566,RU,60.37,93.04,50.43,99,73,4.41
100,Burgersdorp,1014653,ZA,-31.0,26.33,64.15,22,0,11.56
101,Barbacoas,3689228,CO,1.67,-78.14,77.52,84,100,1.99
102,Iqaluit,5983720,CA,63.75,-68.51,59.0,47,75,8.05
103,Swan Hill,2147756,AU,-35.34,143.55,42.78,82,54,7.58
104,Darhan,2031964,MN,49.49,105.92,69.12,62,100,3.89
105,Dryden,5942913,CA,49.78,-92.75,71.6,73,1,13.87
106,Hamilton,4513583,US,39.18,-84.53,76.84,88,1,1.59
107,Chui,3443061,UY,-33.7,-53.46,52.11,91,100,9.75
108,Cherskiy,2126199,RU,68.75,161.3,57.54,77,0,6.2
109,Dubbo,2168305,AU,-32.25,148.62,53.6,81,90,11.41
110,Hilo,5855927,US,19.73,-155.09,69.8,83,75,4.7
111,Kirakira,2178753,SB,-10.45,161.92,79.75,83,44,12.03
112,Porto-Novo,2392087,BJ,6.5,2.6,85.28,58,100,12.73
113,Kapaa,5848280,US,22.08,-159.32,73.06,78,75,9.17
114,Saint George,5546220,US,37.1,-113.58,77.49,53,1,11.41
115,Torbay,6167817,CA,47.67,-52.73,57.58,100,90,13.87
116,Nemuro,2128975,JP,43.32,145.57,58.96,93,97,16.08
117,Hazro City,1176948,PK,33.91,72.49,93.11,52,40,10.29
118,Chokurdakh,2126123,RU,70.63,147.92,67.41,75,20,5.23
119,Laas,3175096,IT,46.62,10.7,59.49,82,90,4.7
120,Il’inskiy,557140,RU,55.62,38.12,64.87,55,73,6.71
121,Zakharivka,709071,UA,47.33,29.75,81.12,41,44,3.71
122,Japura,1642773,ID,-0.32,102.35,75.2,93,69,2.1
123,Dikson,1507390,RU,73.51,80.55,45.34,89,0,7.78
124,Kiunga,2093846,PG,-6.12,141.29,73.71,97,92,3.33
125,Half Moon Bay,5354943,US,37.46,-122.43,56.08,87,90,7.65
126,Provideniya,4031574,RU,64.38,-173.3,52.3,71,47,7.27
127,Mar del Plata,3430863,AR,-38.0,-57.56,44.67,75,75,19.46
128,Altagracia de Orituco,3649408,VE,9.86,-66.38,75.22,88,97,3.29
129,Tuktoyaktuk,6170031,CA,69.45,-133.04,53.6,81,40,9.17
130,Severo-Kuril'sk,2121385,RU,50.68,156.12,47.82,88,80,5.19
131,Mungwi,904241,ZM,-10.17,31.37,75.22,25,0,7.11
132,Mehamn,778707,NO,71.04,27.85,59.0,82,47,4.7
133,Manado,1636544,ID,1.49,124.85,77.0,88,20,4.38
134,Carnarvon,2074865,AU,-24.87,113.63,60.8,77,0,5.82
135,George Town,1735106,MY,5.41,100.34,76.6,94,40,3.6
136,Portland,5746545,US,45.52,-122.68,58.12,77,38,2.75
137,Sydney,2147714,AU,-33.87,151.21,51.6,87,20,4.7
138,Santa Cruz de Tenerife,2511174,ES,28.47,-16.25,76.17,68,20,23.04
139,Thompson,6165406,CA,55.74,-97.86,68.0,94,75,3.36
140,Fuling,1810979,CN,29.7,107.39,82.2,79,100,3.31
141,Luoyang,1801792,CN,34.68,112.45,68.86,87,100,3.4
142,Kendari,1640344,ID,-3.94,122.5,73.02,90,48,3.42
143,Hong Kong,1819729,HK,22.29,114.16,85.06,70,88,3.0
144,Castro,3466704,BR,-24.79,-50.01,70.75,51,0,9.1
145,Ponta do Sol,2264557,PT,32.67,-17.1,77.88,37,20,13.87
146,Bilma,2446796,NE,18.69,12.92,107.06,7,0,10.36
147,Acajutla,3587498,SV,13.59,-89.83,73.42,100,78,2.26
148,Shelopugino,2016757,RU,51.65,117.56,67.33,89,54,2.86
149,Saldanha,3361934,ZA,-33.01,17.94,80.6,24,0,4.7
150,Vaini,4032243,TO,-21.2,-175.2,71.6,94,40,5.82
151,Narsaq,3421719,GL,60.92,-46.05,57.2,67,75,6.93
152,Talnakh,1490256,RU,69.49,88.4,57.2,54,90,29.08
153,Oistins,3373652,BB,13.07,-59.53,80.6,83,75,18.34
154,Tiksi,2015306,RU,71.69,128.87,64.74,59,9,10.78
155,Vila Franca do Campo,3372472,PT,37.72,-25.43,71.6,64,75,5.82
156,Saint Anthony,5044290,US,45.02,-93.22,76.42,69,20,9.17
157,Puqi,1798473,CN,29.72,113.88,79.54,90,100,2.71
158,Kathmandu,1283240,NP,27.72,85.32,71.6,94,75,4.7
159,Khilok,2022463,RU,51.37,110.47,61.68,80,0,0.76
160,Cockburn Town,3576994,TC,21.46,-71.14,83.26,80,100,21.7
161,Avarua,4035715,CK,-21.21,-159.78,71.6,83,81,4.7
162,Sechura,3691954,PE,-5.56,-80.82,66.04,75,45,9.24
163,Geraldton,2070998,AU,-28.77,114.6,50.0,81,0,11.41
164,Cihuatlán,3976999,MX,19.24,-104.57,84.2,74,40,3.15
165,Katakwi,231947,UG,1.89,33.97,77.11,65,97,6.8
166,Lempäälä,648366,FI,61.32,23.75,52.25,93,90,10.29
167,Marrakesh,2542997,MA,31.63,-8.01,100.4,22,0,5.82
168,Buraidah,107304,SA,26.33,43.98,111.2,24,40,5.82
169,Kichera,2022129,RU,55.94,110.1,57.92,80,13,0.69
170,Anchorage,5879400,US,61.22,-149.9,55.47,71,40,3.36
171,Adrar,2381972,MR,20.5,-10.07,109.63,13,0,9.78
172,Sušice,3064662,CZ,49.23,13.52,77.0,44,100,1.99
173,Coracora,3942259,PE,-15.03,-73.78,55.09,29,0,2.73
174,Bengkulu,1649150,ID,-3.8,102.27,78.66,85,34,5.95
175,Chivasso,6538052,IT,45.19,7.89,75.58,64,40,2.24
176,Ancud,3899695,CL,-41.87,-73.82,41.79,86,75,8.05
177,Rokytne,695516,UA,51.28,27.21,71.51,46,96,2.98
178,Lagoa,3372964,PT,39.05,-27.98,69.62,75,0,10.04
179,Cabo San Lucas,3985710,MX,22.89,-109.91,81.36,71,5,1.01
180,Karratha,6620339,AU,-20.74,116.85,70.68,49,0,2.91
181,Marabu,1738050,MY,4.41,114.01,79.38,94,40,4.7
182,Sørland,3137469,NO,67.67,12.69,55.4,82,40,6.93
183,Atar,2381334,MR,20.52,-13.05,107.01,20,0,13.2
184,Hobyo,57000,SO,5.35,48.53,79.27,65,77,31.61
185,Taoudenni,2450173,ML,22.68,-3.98,115.9,5,0,23.53
186,Luena,3347719,AO,-11.78,19.92,73.4,31,11,5.82
187,Aklavik,5882953,CA,68.22,-135.01,53.6,87,75,3.36
188,Mahébourg,934322,MU,-20.41,57.7,68.0,64,75,16.11
189,Saint-Philippe,935215,RE,-21.36,55.77,61.45,60,20,29.97
190,Vad,477424,RU,55.53,44.21,67.24,59,34,7.07
191,Valley City,5062292,US,46.92,-98.0,78.8,100,1,18.34
192,Bay Roberts,5895424,CA,47.6,-53.26,59.0,93,90,5.82
193,Plettenberg Bay,964712,ZA,-34.05,23.37,78.22,20,0,4.85
194,Airai,1651810,TL,-8.93,125.41,52.86,100,94,3.53
195,Tapah,1735287,MY,4.2,101.26,76.19,100,40,3.76
196,Saint Paul Harbor,5866583,US,57.79,-152.41,55.4,87,90,0.87
197,Otaru,2128574,JP,43.19,141.0,66.0,84,100,6.6
198,Kaspiysk,551847,RU,42.88,47.64,82.2,61,20,15.66
199,High Level,5975004,CA,58.52,-117.14,55.4,87,75,5.82
200,Malanje,2239862,AO,-9.54,16.34,82.4,65,75,10.29
201,Samaná,3492997,DO,19.21,-69.34,82.4,88,75,6.35
202,Guerrero Negro,4021858,MX,27.98,-114.06,65.1,85,41,10.4
203,Faanui,4034551,PF,-16.48,-151.75,77.49,76,0,20.74
204,Adré,245669,TD,13.47,22.2,89.64,41,88,7.0
205,Port Blair,1259385,IN,11.67,92.75,83.68,76,75,3.94
206,Gurmatkāl,1270627,IN,16.87,77.4,76.66,80,98,3.6
207,Hailar,2037078,CN,49.2,119.7,70.27,81,52,7.52
208,Vondrozo,1053507,MG,-22.82,47.28,54.59,100,77,4.56
209,Honiara,2108502,SB,-9.43,159.95,73.4,100,40,7.78
210,Alofi,4036284,NU,-19.06,-169.92,73.4,94,27,12.75
211,Metro,1635283,ID,-5.11,105.31,75.25,92,52,2.77
212,Westport,4845585,US,41.14,-73.36,75.67,69,75,9.17
213,Pangnirtung,6096551,CA,66.15,-65.71,51.8,81,90,3.36
214,Kirksville,5055787,US,40.19,-92.58,77.59,78,1,8.05
215,Kahului,5847411,US,20.89,-156.47,74.91,65,1,13.87
216,Hualmay,3939761,PE,-11.1,-77.61,64.17,75,98,9.64
217,Poum,2138555,NC,-20.23,164.02,73.94,84,26,17.13
218,Pevek,2122090,RU,69.7,170.31,44.17,77,67,8.23
219,Kavaratti,1267390,IN,10.57,72.64,80.89,82,100,15.5
220,Gorontalo,1643837,ID,0.54,123.06,75.16,87,100,3.33
221,Biak,1637001,ID,-0.91,122.88,76.68,80,100,5.48
222,Belle Glade,4147241,US,26.68,-80.67,85.35,80,6,5.99
223,Batemans Bay,2176639,AU,-35.72,150.18,48.0,95,77,1.99
224,Salalah,286621,OM,17.02,54.09,80.6,88,75,10.29
225,Santiago del Estero,3835869,AR,-27.8,-64.26,49.15,51,0,5.41
226,Lorengau,2092164,PG,-2.02,147.27,82.67,78,96,9.22
227,Itarema,3393692,BR,-2.92,-39.92,85.68,55,26,14.92
228,Mānikganj,1348441,BD,23.86,90.01,82.4,78,75,6.93
229,Malinyi,155016,TZ,-8.93,36.13,85.24,28,8,0.74
230,Rawson,3839307,AR,-43.3,-65.1,38.01,68,0,16.75
231,San Policarpo,1688696,PH,12.18,125.51,83.07,76,97,3.15
232,Praia,3374333,CV,14.92,-23.51,84.2,62,75,17.22
233,Nikolskoye,546105,RU,59.7,30.79,65.59,40,75,6.71
234,Saint-Joseph,6690296,RE,-21.37,55.62,59.43,60,20,29.97
235,Srednekolymsk,2121025,RU,67.45,153.68,71.02,40,0,7.16
236,Zaoyang,1785462,CN,32.13,112.75,70.43,93,89,1.68
237,Luanda,2240449,AO,-8.84,13.23,80.6,61,0,9.17
238,Areia Branca,3407194,BR,-4.96,-37.14,87.8,48,0,9.17
239,Port Hardy,6111862,CA,50.7,-127.42,53.6,93,75,5.82
240,Arman',2127060,RU,59.7,150.17,52.09,89,46,3.8
241,Nishihara,1855342,JP,26.18,127.76,84.15,83,40,10.29
242,Cayenne,3382160,GF,4.93,-52.33,86.0,62,40,6.93
243,Qaqortoq,3420846,GL,60.72,-46.03,57.2,67,75,6.93
244,Piaçabuçu,3454005,BR,-10.41,-36.43,79.03,69,79,14.41
245,Lebanon,4636045,US,36.21,-86.29,80.8,83,1,2.1
246,Flinders,6255012,AU,-34.58,150.86,53.17,86,14,1.99
247,Ahipara,2194098,NZ,-35.17,173.17,52.29,70,61,7.87
248,Kholodnyy,2124611,RU,62.72,147.95,60.42,68,3,7.18
249,Kiryat Gat,293842,IL,31.61,34.76,87.67,47,0,4.0
250,Yeppoon,2142316,AU,-23.13,150.73,60.8,87,15,6.93
251,Ixtapa,4004293,MX,20.7,-105.2,78.8,83,75,3.36
252,Grand Gaube,934479,MU,-20.01,57.66,68.0,61,50,8.01
253,Nouadhibou,2377457,MR,20.93,-17.03,84.2,62,15,9.17
254,Ilulissat,3423146,GL,69.22,-51.1,48.2,81,75,5.82
255,Nanortalik,3421765,GL,60.14,-45.24,45.14,92,100,6.04
256,Bambous Virieux,1106677,MU,-20.34,57.76,68.0,64,75,16.11
257,Ca Mau,1586443,VN,9.18,105.15,76.05,92,100,4.27
258,Palauig,1696188,PH,15.44,119.9,80.49,77,100,5.77
259,Okha,2122614,RU,53.57,142.95,46.85,90,24,3.36
260,Klaksvík,2618795,FO,62.23,-6.59,51.8,100,100,5.82
261,Codrington,2171099,AU,-38.27,141.97,42.73,89,64,7.02
262,Gazojak,1514792,TM,41.19,61.4,97.83,13,59,2.17
263,Dakar,2253354,SN,14.69,-17.44,86.0,74,75,4.7
264,Āsbe Teferī,343402,ET,9.08,40.87,71.46,69,72,4.97
265,Yar-Sale,1486321,RU,66.83,70.83,62.67,54,7,10.31
266,Grindavik,3416888,IS,63.84,-22.43,51.8,66,20,23.04
267,Port Lincoln,2063036,AU,-34.73,135.87,52.39,87,98,7.31
268,Kiama,2161515,AU,-34.68,150.87,51.01,83,16,1.01
269,Yambio,363656,SS,4.57,28.4,78.66,88,100,3.87
270,Longyearbyen,2729907,SJ,78.22,15.64,51.8,76,75,11.41
271,Petropavlovsk-Kamchatskiy,2122104,RU,53.05,158.65,50.0,100,40,4.47
272,Constitución,3893726,CL,-35.33,-72.42,48.92,71,7,3.2
273,Tikhvin,483019,RU,59.65,33.53,66.78,43,26,6.17
274,Los Llanos de Aridane,2514651,ES,28.66,-17.92,74.57,65,20,18.34
275,Manoel Urbano,3663495,BR,-8.84,-69.26,85.69,55,3,2.17
276,Nizhneangarsk,2019199,RU,55.78,109.55,52.86,86,46,0.6
277,Luwuk,1637001,ID,-0.95,122.79,77.14,77,100,4.52
278,Raymond,4976361,US,43.9,-70.47,75.06,68,100,1.99
279,East London,1006984,ZA,-33.02,27.91,73.4,43,0,8.05
280,Vestmannaeyjar,3412093,IS,63.44,-20.27,53.6,76,40,11.41
281,Muros,3115824,ES,42.78,-9.06,79.0,56,10,15.01
282,Ossipee,5090683,US,43.69,-71.12,76.64,77,100,3.11
283,Iisalmi,656820,FI,63.56,27.19,59.0,58,75,14.99
284,Along,1278969,IN,28.17,94.77,74.88,88,57,1.41
285,Greensburg,5192029,US,40.3,-79.54,75.99,94,75,5.82
286,Abalak,1512223,RU,58.13,68.59,67.06,61,75,6.29
287,Pisco,3932145,PE,-13.7,-76.22,63.37,72,0,4.7
288,Qorveh,119161,IR,35.17,47.8,91.24,10,0,12.68
289,Bakhchisaray,712969,UA,44.75,33.87,80.51,34,23,8.57
290,Vanavara,2013727,RU,60.34,102.28,51.28,92,100,4.97
291,Quito,3652462,EC,-0.23,-78.52,62.6,63,75,3.36
292,Farafangana,1065158,MG,-22.82,47.83,66.11,75,29,10.69
293,Vikersund,3131684,NO,59.97,9.99,71.64,50,1,1.01
294,Belmonte,3470137,BR,-15.86,-38.88,78.8,57,40,12.75
295,Nhulunbuy,2064735,AU,-12.23,136.77,75.2,83,40,8.05
296,Passos,3454847,BR,-20.72,-46.61,73.98,39,0,7.34
297,Muhos,645765,FI,64.81,25.99,64.71,52,99,11.41
298,Tokur,2015217,RU,53.13,132.9,52.97,87,0,1.88
299,Simao,1794209,CN,22.79,100.97,68.65,89,86,1.99
300,Tadine,2138285,NC,-21.55,167.88,70.81,86,92,16.44
301,Erenhot,2037485,CN,43.65,111.98,83.17,42,100,15.43
302,Palmer,4946620,US,42.16,-72.33,75.83,73,90,3.36
303,Port Hawkesbury,6111867,CA,45.62,-61.35,66.92,93,90,13.87
304,Roald,3141667,NO,62.58,6.13,59.0,62,40,12.75
305,Øksfjord,778362,NO,70.24,22.35,64.4,72,96,11.41
306,Bowen,2174444,AU,-20.02,148.23,62.92,93,40,8.05
307,Taree,2147381,AU,-31.9,152.47,47.08,100,75,2.24
308,Esperance,2071860,AU,-33.87,121.9,50.0,81,0,6.93
309,Broken Hill,2173911,AU,-31.95,141.43,55.4,50,40,5.82
310,Kismayo,55671,SO,-0.36,42.55,78.78,67,57,23.96
311,Manteca,5370164,US,37.8,-121.22,62.44,68,1,9.17
312,Pochutla,3517970,MX,15.74,-96.47,77.0,83,75,2.13
313,Sitka,5557293,US,57.05,-135.33,55.4,93,90,3.36
314,Tabou,2281120,CI,4.42,-7.35,79.75,73,98,10.94
315,Booué,2401495,GA,-0.09,11.94,87.87,46,96,4.36
316,Palana,2122262,RU,59.12,159.97,45.21,88,61,5.46
317,Faya,110690,SA,18.39,42.45,86.9,22,40,14.99
318,Pokhara,1282898,NP,28.23,83.98,73.89,80,62,2.1
319,Seymchan,2121373,RU,62.88,152.43,62.29,54,61,4.0
320,Kudahuvadhoo,1337607,MV,2.67,72.89,82.99,73,100,8.3
321,Puerto Peñasco,3991347,MX,31.32,-113.53,84.99,82,0,17.0
322,Brae,2654970,GB,60.4,-1.35,59.0,72,20,6.93
323,Touros,3386213,BR,-5.2,-35.46,82.4,65,75,11.41
324,Hernani,3120811,ES,43.27,-1.98,74.62,60,20,5.82
325,Sur,286245,OM,22.57,59.53,94.19,49,18,15.9
326,Goundam,2456917,ML,16.41,-3.67,97.2,32,99,12.75
327,Rocha,3440777,UY,-34.48,-54.33,49.8,88,100,8.68
328,Yate,2633406,GB,51.54,-2.42,72.0,67,4,5.99
329,Salto,3440714,UY,-31.38,-57.97,44.82,93,90,9.17
330,Natal,3394023,BR,-5.79,-35.21,81.5,65,40,18.34
331,Derzhavīnsk,1524606,KZ,51.1,66.32,71.82,62,50,17.72
332,Lata,2738381,PT,40.16,-8.33,86.16,45,0,11.1
333,Kalmunai,1242110,LK,7.42,81.82,82.51,75,41,1.45
334,Yangi Marg`ilon,1513491,UZ,40.43,71.72,89.6,31,85,13.87
335,Berlevåg,780687,NO,70.86,29.09,64.4,68,63,13.87
336,Bol,2434979,TD,13.46,14.71,83.19,67,8,11.95
337,Vila Velha,3445026,BR,-20.33,-40.29,74.71,73,75,11.41
338,Ft. Pierce,4156018,US,27.45,-80.33,85.57,79,1,16.11
339,Santiago de Chuco,3692072,PE,-8.15,-78.18,55.08,54,92,4.07
340,Anadyr,2127202,RU,64.75,177.48,64.18,59,100,13.42
341,Nelson Bay,2155562,AU,-32.72,152.15,48.42,93,0,10.96
342,Krasnyy Oktyabr',541549,RU,56.12,38.88,61.95,79,100,5.21
343,Kokoda,2093691,PG,-8.88,147.74,73.08,72,96,0.74
344,North Bend,5742974,US,43.41,-124.22,52.18,100,90,4.7
345,Chegdomyn,2025579,RU,51.12,133.02,60.58,78,5,3.24
346,San Vicente,3428068,AR,-26.62,-54.13,73.58,48,72,8.3
347,Znamenskoye,1485020,RU,57.13,73.83,66.81,62,28,2.8
348,Gunnedah,2164206,AU,-30.98,150.25,51.8,81,0,9.17
349,Nuuk,3421319,GL,64.18,-51.72,51.8,76,75,3.36
350,Turukhansk,1488903,RU,65.82,87.98,60.46,78,85,6.93
351,Kütahya,305268,TR,39.42,29.98,86.67,33,20,6.93
352,Ribeira Grande,3372707,PT,38.52,-28.7,73.4,64,20,9.17
353,Taltal,3870243,CL,-25.4,-70.48,62.46,29,0,3.96
354,Dalbandin,1180729,PK,28.89,64.41,104.05,11,19,12.41
355,Prince Rupert,6113406,CA,54.32,-130.32,55.4,93,90,4.7
356,Matadi,2313002,CD,-5.82,13.45,94.66,28,87,5.12
357,Evensk,2125693,RU,61.95,159.23,52.07,84,100,4.21
358,San Fernando del Valle de Catamarca,3837702,AR,-28.47,-65.79,43.05,77,33,1.99
359,Demir Hisar,787778,MK,41.22,21.2,84.2,37,20,9.17
360,Mossamedes,3347019,AO,-15.2,12.15,78.04,44,0,13.85
361,Manta,3654410,EC,-0.95,-80.73,73.4,83,75,10.29
362,Oriximiná,3393471,BR,-1.77,-55.87,88.2,55,24,5.06
363,Port Hedland,2063042,AU,-20.32,118.57,64.4,34,0,6.93
364,Tonkino,482230,RU,57.37,46.46,69.06,55,29,6.15
365,Pauini,3662927,BR,-7.71,-66.98,88.07,53,36,1.48
366,Xining,1788852,CN,36.62,101.77,60.75,85,100,4.45
367,Quelimane,1028434,MZ,-17.88,36.89,75.09,64,75,5.82
368,Bariloche,7647007,AR,-41.15,-71.31,35.6,59,40,16.11
369,Nome,5870133,US,64.5,-165.41,47.61,87,90,3.36
370,Spanish Town,3488465,JM,17.99,-76.96,80.64,66,40,3.36
371,Katobu,1640972,ID,-4.94,122.53,72.43,88,35,4.45
372,Yumen,1528998,CN,40.28,97.2,78.53,17,0,15.82
373,Baykit,1510689,RU,61.67,96.37,54.25,84,72,3.27
374,Tricase,2522857,IT,39.93,18.36,86.41,74,0,3.0
375,Pemangkat,1631637,ID,1.17,108.97,79.11,78,92,3.18
376,Tapejara,3446922,BR,-28.07,-52.01,65.34,74,76,8.32
377,Tazovsky,1489853,RU,67.47,78.7,57.38,61,42,12.24
378,Mae Sot,1152188,TH,16.72,98.57,77.47,88,24,1.1
379,Kruisfontein,986717,ZA,-34.0,24.73,78.69,19,0,5.95
380,Delano,5342485,US,35.77,-119.25,65.52,72,1,5.82
381,Lugovoy,1521293,KZ,42.95,72.76,75.27,53,81,5.77
382,Menongue,3347353,AO,-14.66,17.69,77.86,17,0,7.78
383,Saint-Leu,6690297,RE,-21.15,55.28,61.97,60,20,29.97
384,Batagay,2027044,RU,67.63,134.63,68.11,47,43,3.51
385,Lasem,1638352,ID,-6.69,111.45,77.76,81,82,8.01
386,Ndélé,237379,CF,8.41,20.65,84.04,66,37,5.57
387,Umluj,100926,SA,25.02,37.27,90.07,56,0,12.55
388,Orán,3836620,AR,-23.13,-64.33,50.0,85,95,3.56
389,Kloulklubed,7671223,PW,7.04,134.26,77.0,94,75,3.36
390,Krasnystaw,767605,PL,50.98,23.17,76.48,38,21,4.7
391,Sampit,1628884,ID,-2.53,112.95,74.37,91,89,3.6
392,Praia da Vitória,3372760,PT,38.73,-27.07,77.0,53,20,6.91
393,Creel,4012593,MX,27.75,-107.63,57.31,91,100,2.64
394,Bouillante,3579642,GP,16.13,-61.77,89.6,59,75,18.34
395,Hithadhoo,1282256,MV,-0.6,73.08,83.73,70,100,6.96
396,Barcelona,3128760,ES,41.39,2.16,84.34,74,20,10.29
397,Wanning,1791779,CN,18.8,110.4,82.72,77,49,7.34
398,Lipari,2524379,IT,38.47,14.95,88.29,33,0,5.99
399,Bahía Honda,3567995,CU,22.9,-83.16,79.54,84,100,9.48
400,Ampanihy,1078553,MG,-24.7,44.75,68.86,50,1,16.51
401,Khatanga,2022572,RU,71.97,102.5,40.75,93,100,13.44
402,Sindor,492860,RU,62.86,51.89,76.01,33,0,7.29
403,Kaitangata,2208248,NZ,-46.28,169.85,45.0,56,71,8.01
404,Benguela,3351663,AO,-12.58,13.41,77.0,73,40,9.17
405,Bayanday,2027004,RU,53.07,105.51,63.91,73,24,0.94
406,Chelno-Vershiny,569497,RU,54.43,51.1,68.74,66,0,10.71
407,Tayu,1624545,ID,-6.54,111.05,78.87,79,78,8.77
408,Clyde River,5924351,CA,70.47,-68.59,53.6,81,40,8.05
409,Coyhaique,3894426,CL,-45.58,-72.07,37.4,74,90,8.05
410,Zhigansk,2012530,RU,66.77,123.37,63.57,75,5,9.64
411,Yanliang,1787144,CN,34.66,109.23,70.79,100,90,2.24
412,San Rafael,3836669,AR,-34.62,-68.33,45.72,45,4,4.16
413,Lakatoro,2136697,VU,-16.1,167.42,78.42,82,63,13.09
414,Yakovlevka,2013176,RU,44.42,133.48,66.49,94,100,0.81
415,Bonfim,3405215,BR,3.08,-59.95,82.06,74,67,4.0
416,Cosalá,4012707,MX,24.41,-106.69,82.0,87,77,1.99
417,Maningrida,2067089,AU,-12.07,134.27,70.54,74,7,10.25
418,La Ronge,6050066,CA,55.1,-105.28,66.2,88,90,11.41
419,Dehlorān,136702,IR,32.69,47.27,115.12,6,0,5.32
420,Tura,1254046,IN,25.52,90.22,75.45,97,99,4.21
421,Fairbanks,5861897,US,64.84,-147.72,50.34,93,90,4.7
422,Gaur,1283401,NP,26.77,85.27,85.01,76,89,8.28
423,Necochea,3430443,AR,-38.55,-58.74,42.01,88,100,20.0
424,Domažlice,3076587,CZ,49.44,12.93,78.12,30,75,8.05
425,Edd,338345,ER,13.93,41.69,96.12,46,94,7.2
426,Araouane,2460954,ML,18.9,-3.53,110.34,12,7,11.83
427,Denizli Province,317106,TR,37.84,29.07,93.2,16,0,3.36
428,Saraipali,1257259,IN,21.33,83.0,77.52,82,100,2.55
429,At-Bashi,1528796,KG,41.17,75.81,62.13,61,100,2.26
430,Shaygino,495470,RU,57.77,46.86,68.67,57,36,6.11
431,Yurécuaro,3979856,MX,20.33,-102.3,65.08,86,99,1.74
432,Bryan,4677008,US,30.67,-96.37,84.02,74,1,6.93
433,Togur,1489499,RU,58.36,82.83,64.49,69,95,0.67
434,Mlonggo,1635164,ID,-6.53,110.7,77.86,79,35,7.14
435,Marzuq,72181,YE,14.4,46.47,86.99,47,41,11.99
436,Mana,3381041,GF,5.66,-53.78,83.3,64,48,4.63
437,Coalinga,5338196,US,36.14,-120.36,68.43,52,0,1.25
438,Tongren,1792592,CN,27.72,109.19,81.12,80,100,3.6
439,Alyangula,2079582,AU,-13.85,136.42,69.8,94,0,10.25
440,Lago da Pedra,3396601,BR,-4.33,-45.17,86.79,49,0,5.64
441,Khovd,1516048,MN,48.01,91.64,72.05,42,3,4.21
442,Takoradze,2294915,GH,4.88,-1.76,80.22,68,88,11.18
443,São Filipe,3374210,CV,14.9,-24.5,76.98,74,87,9.6
444,Rafaela,3839479,AR,-31.25,-61.49,44.2,66,0,4.0
445,Korhogo,2286304,CI,9.45,-5.63,85.44,62,88,7.2
446,Amahai,1651591,ID,-3.33,128.92,77.27,87,35,7.56
447,Lusambo,210379,CD,-4.97,23.45,97.56,18,7,2.44
448,Mahajanga,1062663,MG,-15.72,46.32,84.2,26,46,11.41
449,Marang,1734715,MY,5.21,103.21,79.39,88,20,4.7
450,Sirsi,1256047,IN,14.62,74.85,73.11,93,100,4.07
451,Belaya Gora,2126785,RU,68.53,146.42,75.65,54,97,3.13
452,Vostok,2013279,RU,46.49,135.88,56.32,100,0,3.06
453,Castrovillari,6540785,IT,39.82,16.21,96.01,21,0,5.01
454,Camacha,2270385,PT,33.08,-16.33,73.4,69,40,18.34
455,Henties Bay,3356832,NA,-22.12,14.28,81.46,19,0,4.97
456,Douentza,2458334,ML,15.0,-2.95,93.61,41,62,11.3
457,Haines Junction,5969025,CA,60.75,-137.51,45.61,82,29,3.2
458,Durusu,747793,TR,41.31,28.68,78.12,61,0,25.28
459,Singaraja,1626932,ID,-8.11,115.09,75.51,70,97,7.81
460,Asău,686090,RO,46.43,26.4,73.99,76,71,4.16
461,Bolshevik,625144,BY,54.01,27.57,69.8,35,32,8.95
462,Bambanglipuro,1650434,ID,-7.95,110.28,75.04,79,100,11.18
463,Stornoway,2636790,GB,58.21,-6.39,57.52,82,40,10.29
464,Lodwar,189280,KE,3.12,35.6,88.79,38,55,4.54
465,Santa Marta,3668605,CO,11.24,-74.2,83.05,68,100,5.79
466,Prata,3452440,BR,-19.31,-48.92,78.67,30,0,15.39
467,Pelhřimov,3068445,CZ,49.43,15.22,75.76,44,100,4.7
468,Leshukonskoye,535839,RU,64.9,45.76,75.6,52,11,7.78
469,Amalāpuram,1278935,IN,16.58,82.02,82.4,74,90,2.39
470,Jiangyou,1885823,CN,31.77,104.72,76.23,88,55,3.56
471,Konstantinovka,2021799,RU,49.62,127.98,70.9,78,37,7.92
472,Mokhsogollokh,2019867,RU,61.47,128.92,64.58,80,85,1.14
473,Altay,1529651,CN,47.87,88.12,67.39,47,1,2.3
474,Homer,5864145,US,59.64,-151.55,53.37,93,90,3.36
475,Balkhash,1525798,KZ,46.84,74.98,77.22,48,41,12.93
476,Buta,217570,CD,2.79,24.73,91.11,42,84,3.98
477,Fortuna,5563839,US,40.6,-124.16,53.94,93,90,3.36
478,Arroyo de la Encomienda,3129371,ES,41.61,-4.8,84.79,23,0,9.17
479,Mount Gambier,2156643,AU,-37.83,140.77,44.6,87,89,8.05
480,Omboué,2396853,GA,-1.57,9.26,78.89,64,16,9.24
481,Taunggyi,1293960,MM,20.78,97.03,66.51,100,85,2.15
482,Kieta,2094027,PG,-6.22,155.63,79.0,80,54,8.37
483,Āsosa,343292,ET,10.07,34.53,68.86,95,96,3.71
484,Portobelo,3702577,PA,9.55,-79.65,77.77,88,98,8.01
485,Okhotsk,2122605,RU,59.38,143.3,53.65,83,26,5.53
486,Mildura,2157698,AU,-34.2,142.15,50.0,61,70,5.82
487,Ust'-Kut,2013923,RU,56.79,105.77,57.58,89,6,3.33
488,San Vicente de Cañete,3928993,PE,-13.08,-76.38,64.6,70,44,4.74
489,Carmarthen,2653755,GB,51.86,-4.31,65.05,88,100,17.22
490,Zell am See,2760634,AT,47.33,12.79,66.38,67,100,3.78
491,Kushima,1895695,JP,31.46,131.23,77.0,83,75,9.17
492,Gambo,239300,CF,4.65,22.26,83.46,66,94,2.42
493,Vardø,777019,NO,70.37,31.11,64.4,72,33,18.34
494,Quang Ngai,1568770,VN,15.12,108.8,79.02,85,36,5.66
495,Mayo,4362001,US,38.89,-76.51,76.23,94,40,2.86
496,Naro,2524022,IT,37.29,13.79,93.69,23,0,5.99
497,Namatanai,2090021,PG,-3.67,152.43,80.51,79,66,9.46
498,Upata,3625710,VE,8.01,-62.4,79.56,74,78,5.57
499,Sobolevo,525426,RU,54.43,31.9,64.22,63,0,8.46
500,Tuatapere,2180815,NZ,-46.13,167.68,39.0,83,7,3.0
501,Sittwe,1295765,MM,20.15,92.9,82.9,81,92,5.03
502,Jiazi,1805935,CN,22.88,116.07,84.0,80,94,6.76
503,Abhā,110690,SA,18.22,42.51,86.83,22,40,14.99
504,Peace River,6100069,CA,56.25,-117.29,53.83,76,90,10.29
505,Payo,1638775,ID,-3.75,103.64,74.39,92,41,2.84
506,Waingapu,1622318,ID,-9.66,120.26,70.7,78,74,10.13
507,Herat Province,1140025,AF,34.5,62.0,98.6,16,0,17.22
508,Alamosa,5411479,US,37.47,-105.87,64.4,68,75,10.29
509,Batī,342641,ET,11.18,40.02,81.77,39,70,15.37
510,Cortez,5418104,US,37.35,-108.59,59.47,88,90,3.62
511,Madera,5369578,US,37.17,-119.83,66.87,57,0,1.77
512,Muroto-misakicho,1856392,JP,33.28,134.15,79.41,89,100,20.15
513,Jutaí,3663693,BR,-5.18,-68.9,84.58,67,32,1.97
514,Macamic,6062563,CA,48.75,-79.0,73.4,56,20,4.7
515,Soyo,2236967,AO,-6.13,12.37,78.8,69,20,8.05
516,Najrān,103630,SA,17.49,44.13,98.6,22,40,11.41
517,Beloostrov,577907,RU,60.15,30.0,65.95,57,98,4.0
518,Gemeente Barendrecht,2759425,NL,51.85,4.53,71.37,64,20,11.41
519,Juegang,1804979,CN,32.32,121.19,80.01,80,0,13.69
520,Madimba,878141,TZ,-10.4,40.33,82.4,48,75,11.41
521,Miyako,2111884,JP,39.64,141.95,69.69,86,100,3.13
522,Musoma,152451,TZ,-1.5,33.8,78.8,69,20,11.41
523,Qui Nhon,1568574,VN,13.77,109.23,81.07,81,42,5.79
524,Matara,1235846,LK,5.95,80.54,78.84,87,100,6.98
525,Calabozo,3647444,VE,8.92,-67.43,74.55,95,100,6.73
526,Chumikan,2025256,RU,54.72,135.31,50.81,85,0,6.42
527,Kamuli,232397,UG,0.95,33.12,76.48,66,61,3.38
528,Gornopravdinsk,1506268,RU,60.05,69.9,65.84,53,38,5.88
529,Wschowa,3081300,PL,51.81,16.32,82.4,28,63,8.05
530,Townsville,2146142,AU,-19.25,146.8,66.56,93,40,6.93
531,Akşehir,324490,TR,38.36,31.42,84.76,19,0,5.91
532,San Lazaro,3581514,BZ,18.04,-88.66,86.67,79,75,4.43
533,Bacabal,3406910,BR,-4.29,-44.79,87.75,48,1,4.97
534,Semey,1519422,KZ,50.41,80.23,68.0,88,40,6.71
535,Isangel,2136825,VU,-19.55,169.27,73.33,85,28,10.07
536,Caravelas,3466980,BR,-17.71,-39.25,77.76,62,13,10.16
537,Maketu,2187908,NZ,-37.77,176.45,39.54,89,0,1.01
538,Bubaque,2374583,GW,11.28,-15.83,80.76,78,100,6.15
539,Huanta,3939386,PE,-12.93,-74.25,60.8,31,95,3.36
540,Barranca,3946820,PE,-10.75,-77.77,62.24,82,100,6.46
541,Urucará,3385670,BR,-2.54,-57.76,88.2,56,1,4.27
542,Puerto Baquerizo Moreno,3652758,EC,-0.9,-89.6,68.47,87,98,15.14
543,La Unión,3695466,PE,-5.4,-80.75,67.86,68,35,8.25
544,Loíza,4566022,PR,18.43,-65.88,77.86,88,75,4.7
545,Vágur,2610806,FO,61.47,-6.81,52.05,91,100,3.22
546,Kedrovyy,1538641,RU,56.17,91.82,59.0,82,0,2.24
547,Birjand,140463,IR,32.87,59.22,93.2,17,20,16.11
548,Tilichiki,2120591,RU,60.47,166.1,49.77,78,69,4.21
549,Ketchikan,5554428,US,55.34,-131.65,53.6,100,90,0.47
